[
  {
    "key": "AD",
    "lat": 42.546245,
    "lng": 1.601554,
    "name": "Andorra"
  },
  {
    "key": "AE",
    "lat": 23.424076,
    "lng": 53.847818,
    "name": "United Arab Emirates"
  },
  {
    "key": "AF",
    "lat": 33.93911,
    "lng": 67.709953,
    "name": "Afghanistan"
  },
  {
    "key": "AG",
    "lat": 17.060816,
    "lng": -61.796428,
    "name": "Antigua and Barbuda"
  },
  {
    "key": "AI",
    "lat": 18.220554,
    "lng": -63.068615,
    "name": "Anguilla"
  },
  {
    "key": "AL",
    "lat": 41.153332,
    "lng": 20.168331,
    "name": "Albania"
  },
  {
    "key": "AM",
    "lat": 40.069099,
    "lng": 45.038189,
    "name": "Armenia"
  },
  {
    "key": "AN",
    "lat": 12.226079,
    "lng": -69.060087,
    "name": "Netherlands Antilles"
  },
  {
    "key": "AO",
    "lat": -11.202692,
    "lng": 17.873887,
    "name": "Angola"
  },
  {
    "key": "AQ",
    "lat": -75.250973,
    "lng": -0.071389,
    "name": "Antarctica"
  },
  {
    "key": "AR",
    "lat": -38.416097,
    "lng": -63.616672,
    "name": "Argentina"
  },
  {
    "key": "AS",
    "lat": -14.270972,
    "lng": -170.132217,
    "name": "American Samoa"
  },
  {
    "key": "AT",
    "lat": 47.516231,
    "lng": 14.550072,
    "name": "Austria"
  },
  {
    "key": "AU",
    "lat": -25.274398,
    "lng": 133.775136,
    "name": "Australia"
  },
  {
    "key": "AW",
    "lat": 12.52111,
    "lng": -69.968338,
    "name": "Aruba"
  },
  {
    "key": "AX",
    "lat": 60.3385485,
    "lng": 20.2712585,
    "name": "Åland"
  },
  {
    "key": "AZ",
    "lat": 40.143105,
    "lng": 47.576927,
    "name": "Azerbaijan"
  },
  {
    "key": "BA",
    "lat": 43.915886,
    "lng": 17.679076,
    "name": "Bosnia and Herzegovina"
  },
  {
    "key": "BB",
    "lat": 13.193887,
    "lng": -59.543198,
    "name": "Barbados"
  },
  {
    "key": "BD",
    "lat": 23.684994,
    "lng": 90.356331,
    "name": "Bangladesh"
  },
  {
    "key": "BE",
    "lat": 50.503887,
    "lng": 4.469936,
    "name": "Belgium"
  },
  {
    "key": "BF",
    "lat": 12.238333,
    "lng": -1.561593,
    "name": "Burkina Faso"
  },
  {
    "key": "BG",
    "lat": 42.733883,
    "lng": 25.48583,
    "name": "Bulgaria"
  },
  {
    "key": "BH",
    "lat": 25.930414,
    "lng": 50.637772,
    "name": "Bahrain"
  },
  {
    "key": "BI",
    "lat": -3.373056,
    "lng": 29.918886,
    "name": "Burundi"
  },
  {
    "key": "BJ",
    "lat": 9.30769,
    "lng": 2.315834,
    "name": "Benin"
  },
  {
    "key": "BL",
    "lat": 17.9,
    "lng": -62.833333,
    "name": "Saint-Barthélemy"
  },
  {
    "key": "BM",
    "lat": 32.321384,
    "lng": -64.75737,
    "name": "Bermuda"
  },
  {
    "key": "BN",
    "lat": 4.535277,
    "lng": 114.727669,
    "name": "Brunei"
  },
  {
    "key": "BO",
    "lat": -16.290154,
    "lng": -63.588653,
    "name": "Bolivia"
  },
  {
    "key": "BQ",
    "lat": 12.1783611,
    "lng": -68.2385339,
    "name": "Bonaire, Sint Eustatius, and Saba"
  },
  {
    "key": "BR",
    "lat": -14.235004,
    "lng": -51.92528,
    "name": "Brazil"
  },
  {
    "key": "BS",
    "lat": 25.03428,
    "lng": -77.39628,
    "name": "Bahamas"
  },
  {
    "key": "BT",
    "lat": 27.514162,
    "lng": 90.433601,
    "name": "Bhutan"
  },
  {
    "key": "BV",
    "lat": -54.423199,
    "lng": 3.413194,
    "name": "Bouvet Island"
  },
  {
    "key": "BW",
    "lat": -22.328474,
    "lng": 24.684866,
    "name": "Botswana"
  },
  {
    "key": "BY",
    "lat": 53.709807,
    "lng": 27.953389,
    "name": "Belarus"
  },
  {
    "key": "BZ",
    "lat": 17.189877,
    "lng": -88.49765,
    "name": "Belize"
  },
  {
    "key": "CA",
    "lat": 56.130366,
    "lng": -106.346771,
    "name": "Canada"
  },
  {
    "key": "CC",
    "lat": -12.164165,
    "lng": 96.870956,
    "name": "Cocos [Keeling] Islands"
  },
  {
    "key": "CD",
    "lat": -4.038333,
    "lng": 21.758664,
    "name": "Congo [DRC]"
  },
  {
    "key": "CF",
    "lat": 6.611111,
    "lng": 20.939444,
    "name": "Central African Republic"
  },
  {
    "key": "CG",
    "lat": -0.228021,
    "lng": 15.827659,
    "name": "Congo [Republic]"
  },
  {
    "key": "CH",
    "lat": 46.818188,
    "lng": 8.227512,
    "name": "Switzerland"
  },
  {
    "key": "CI",
    "lat": 7.539989,
    "lng": -5.54708,
    "name": "Côte d'Ivoire"
  },
  {
    "key": "CK",
    "lat": -21.236736,
    "lng": -159.777671,
    "name": "Cook Islands"
  },
  {
    "key": "CL",
    "lat": -35.675147,
    "lng": -71.542969,
    "name": "Chile"
  },
  {
    "key": "CM",
    "lat": 7.369722,
    "lng": 12.354722,
    "name": "Cameroon"
  },
  {
    "key": "CN",
    "lat": 35.86166,
    "lng": 104.195397,
    "name": "China"
  },
  {
    "key": "CO",
    "lat": 4.570868,
    "lng": -74.297333,
    "name": "Colombia"
  },
  {
    "key": "CR",
    "lat": 9.748917,
    "lng": -83.753428,
    "name": "Costa Rica"
  },
  {
    "key": "CU",
    "lat": 21.521757,
    "lng": -77.781167,
    "name": "Cuba"
  },
  {
    "key": "CV",
    "lat": 16.002082,
    "lng": -24.013197,
    "name": "Cape Verde"
  },
  {
    "key": "CW",
    "lat": 12.16957,
    "lng": -68.99002,
    "name": "Curaçao"
  },
  {
    "key": "CX",
    "lat": -10.447525,
    "lng": 105.690449,
    "name": "Christmas Island"
  },
  {
    "key": "CY",
    "lat": 35.126413,
    "lng": 33.429859,
    "name": "Cyprus"
  },
  {
    "key": "CZ",
    "lat": 49.817492,
    "lng": 15.472962,
    "name": "Czech Republic"
  },
  {
    "key": "DE",
    "lat": 51.165691,
    "lng": 10.451526,
    "name": "Germany"
  },
  {
    "key": "DJ",
    "lat": 11.825138,
    "lng": 42.590275,
    "name": "Djibouti"
  },
  {
    "key": "DK",
    "lat": 56.26392,
    "lng": 9.501785,
    "name": "Denmark"
  },
  {
    "key": "DM",
    "lat": 15.414999,
    "lng": -61.370976,
    "name": "Dominica"
  },
  {
    "key": "DO",
    "lat": 18.735693,
    "lng": -70.162651,
    "name": "Dominican Republic"
  },
  {
    "key": "DZ",
    "lat": 28.033886,
    "lng": 1.659626,
    "name": "Algeria"
  },
  {
    "key": "EC",
    "lat": -1.831239,
    "lng": -78.183406,
    "name": "Ecuador"
  },
  {
    "key": "EE",
    "lat": 58.595272,
    "lng": 25.013607,
    "name": "Estonia"
  },
  {
    "key": "EG",
    "lat": 26.820553,
    "lng": 30.802498,
    "name": "Egypt"
  },
  {
    "key": "EH",
    "lat": 24.215527,
    "lng": -12.885834,
    "name": "Western Sahara"
  },
  {
    "key": "ER",
    "lat": 15.179384,
    "lng": 39.782334,
    "name": "Eritrea"
  },
  {
    "key": "ES",
    "lat": 40.463667,
    "lng": -3.74922,
    "name": "Spain"
  },
  {
    "key": "ET",
    "lat": 9.145,
    "lng": 40.489673,
    "name": "Ethiopia"
  },
  {
    "key": "FI",
    "lat": 61.92411,
    "lng": 25.748151,
    "name": "Finland"
  },
  {
    "key": "FJ",
    "lat": -16.578193,
    "lng": 179.414413,
    "name": "Fiji"
  },
  {
    "key": "FK",
    "lat": -51.796253,
    "lng": -59.523613,
    "name": "Falkland Islands [Islas Malvinas]"
  },
  {
    "key": "FM",
    "lat": 7.425554,
    "lng": 150.550812,
    "name": "Micronesia"
  },
  {
    "key": "FO",
    "lat": 61.892635,
    "lng": -6.911806,
    "name": "Faroe Islands"
  },
  {
    "key": "FR",
    "lat": 46.227638,
    "lng": 2.213749,
    "name": "France"
  },
  {
    "key": "GA",
    "lat": -0.803689,
    "lng": 11.609444,
    "name": "Gabon"
  },
  {
    "key": "GB",
    "lat": 55.378051,
    "lng": -3.435973,
    "name": "United Kingdom"
  },
  {
    "key": "GD",
    "lat": 12.262776,
    "lng": -61.604171,
    "name": "Grenada"
  },
  {
    "key": "GE",
    "lat": 42.315407,
    "lng": 43.356892,
    "name": "Georgia"
  },
  {
    "key": "GF",
    "lat": 3.933889,
    "lng": -53.125782,
    "name": "French Guiana"
  },
  {
    "key": "GG",
    "lat": 49.465691,
    "lng": -2.585278,
    "name": "Guernsey"
  },
  {
    "key": "GH",
    "lat": 7.946527,
    "lng": -1.023194,
    "name": "Ghana"
  },
  {
    "key": "GI",
    "lat": 36.137741,
    "lng": -5.345374,
    "name": "Gibraltar"
  },
  {
    "key": "GL",
    "lat": 71.706936,
    "lng": -42.604303,
    "name": "Greenland"
  },
  {
    "key": "GM",
    "lat": 13.443182,
    "lng": -15.310139,
    "name": "Gambia"
  },
  {
    "key": "GN",
    "lat": 9.945587,
    "lng": -9.696645,
    "name": "Guinea"
  },
  {
    "key": "GP",
    "lat": 16.995971,
    "lng": -62.067641,
    "name": "Guadeloupe"
  },
  {
    "key": "GQ",
    "lat": 1.650801,
    "lng": 10.267895,
    "name": "Equatorial Guinea"
  },
  {
    "key": "GR",
    "lat": 39.074208,
    "lng": 21.824312,
    "name": "Greece"
  },
  {
    "key": "GS",
    "lat": -54.429579,
    "lng": -36.587909,
    "name": "South Georgia and the South Sandwich Islands"
  },
  {
    "key": "GT",
    "lat": 15.783471,
    "lng": -90.230759,
    "name": "Guatemala"
  },
  {
    "key": "GU",
    "lat": 13.444304,
    "lng": 144.793731,
    "name": "Guam"
  },
  {
    "key": "GW",
    "lat": 11.803749,
    "lng": -15.180413,
    "name": "Guinea-Bissau"
  },
  {
    "key": "GY",
    "lat": 4.860416,
    "lng": -58.93018,
    "name": "Guyana"
  },
  {
    "key": "GZ",
    "lat": 31.354676,
    "lng": 34.308825,
    "name": "Gaza Strip"
  },
  {
    "key": "HK",
    "lat": 22.396428,
    "lng": 114.109497,
    "name": "Hong Kong"
  },
  {
    "key": "HM",
    "lat": -53.08181,
    "lng": 73.504158,
    "name": "Heard Island and McDonald Islands"
  },
  {
    "key": "HN",
    "lat": 15.199999,
    "lng": -86.241905,
    "name": "Honduras"
  },
  {
    "key": "HR",
    "lat": 45.1,
    "lng": 15.2,
    "name": "Croatia"
  },
  {
    "key": "HT",
    "lat": 18.971187,
    "lng": -72.285215,
    "name": "Haiti"
  },
  {
    "key": "HU",
    "lat": 47.162494,
    "lng": 19.503304,
    "name": "Hungary"
  },
  {
    "key": "ID",
    "lat": -0.789275,
    "lng": 113.921327,
    "name": "Indonesia"
  },
  {
    "key": "IE",
    "lat": 53.41291,
    "lng": -8.24389,
    "name": "Ireland"
  },
  {
    "key": "IL",
    "lat": 31.046051,
    "lng": 34.851612,
    "name": "Israel"
  },
  {
    "key": "IM",
    "lat": 54.236107,
    "lng": -4.548056,
    "name": "Isle of Man"
  },
  {
    "key": "IN",
    "lat": 20.593684,
    "lng": 78.96288,
    "name": "India"
  },
  {
    "key": "IO",
    "lat": -6.343194,
    "lng": 71.876519,
    "name": "British Indian Ocean Territory"
  },
  {
    "key": "IQ",
    "lat": 33.223191,
    "lng": 43.679291,
    "name": "Iraq"
  },
  {
    "key": "IR",
    "lat": 32.427908,
    "lng": 53.688046,
    "name": "Iran"
  },
  {
    "key": "IS",
    "lat": 64.963051,
    "lng": -19.020835,
    "name": "Iceland"
  },
  {
    "key": "IT",
    "lat": 41.87194,
    "lng": 12.56738,
    "name": "Italy"
  },
  {
    "key": "JE",
    "lat": 49.214439,
    "lng": -2.13125,
    "name": "Jersey"
  },
  {
    "key": "JM",
    "lat": 18.109581,
    "lng": -77.297508,
    "name": "Jamaica"
  },
  {
    "key": "JO",
    "lat": 30.585164,
    "lng": 36.238414,
    "name": "Jordan"
  },
  {
    "key": "JP",
    "lat": 36.204824,
    "lng": 138.252924,
    "name": "Japan"
  },
  {
    "key": "KE",
    "lat": -0.023559,
    "lng": 37.906193,
    "name": "Kenya"
  },
  {
    "key": "KG",
    "lat": 41.20438,
    "lng": 74.766098,
    "name": "Kyrgyzstan"
  },
  {
    "key": "KH",
    "lat": 12.565679,
    "lng": 104.990963,
    "name": "Cambodia"
  },
  {
    "key": "KI",
    "lat": -3.370417,
    "lng": -168.734039,
    "name": "Kiribati"
  },
  {
    "key": "KM",
    "lat": -11.875001,
    "lng": 43.872219,
    "name": "Comoros"
  },
  {
    "key": "KN",
    "lat": 17.357822,
    "lng": -62.782998,
    "name": "Saint Kitts and Nevis"
  },
  {
    "key": "KP",
    "lat": 40.339852,
    "lng": 127.510093,
    "name": "North Korea"
  },
  {
    "key": "KR",
    "lat": 35.907757,
    "lng": 127.766922,
    "name": "South Korea"
  },
  {
    "key": "KW",
    "lat": 29.31166,
    "lng": 47.481766,
    "name": "Kuwait"
  },
  {
    "key": "KY",
    "lat": 19.513469,
    "lng": -80.566956,
    "name": "Cayman Islands"
  },
  {
    "key": "KZ",
    "lat": 48.019573,
    "lng": 66.923684,
    "name": "Kazakhstan"
  },
  {
    "key": "LA",
    "lat": 19.85627,
    "lng": 102.495496,
    "name": "Laos"
  },
  {
    "key": "LB",
    "lat": 33.854721,
    "lng": 35.862285,
    "name": "Lebanon"
  },
  {
    "key": "LC",
    "lat": 13.909444,
    "lng": -60.978893,
    "name": "Saint Lucia"
  },
  {
    "key": "LI",
    "lat": 47.166,
    "lng": 9.555373,
    "name": "Liechtenstein"
  },
  {
    "key": "LK",
    "lat": 7.873054,
    "lng": 80.771797,
    "name": "Sri Lanka"
  },
  {
    "key": "LR",
    "lat": 6.428055,
    "lng": -9.429499,
    "name": "Liberia"
  },
  {
    "key": "LS",
    "lat": -29.609988,
    "lng": 28.233608,
    "name": "Lesotho"
  },
  {
    "key": "LT",
    "lat": 55.169438,
    "lng": 23.881275,
    "name": "Lithuania"
  },
  {
    "key": "LU",
    "lat": 49.815273,
    "lng": 6.129583,
    "name": "Luxembourg"
  },
  {
    "key": "LV",
    "lat": 56.879635,
    "lng": 24.603189,
    "name": "Latvia"
  },
  {
    "key": "LY",
    "lat": 26.3351,
    "lng": 17.228331,
    "name": "Libya"
  },
  {
    "key": "MA",
    "lat": 31.791702,
    "lng": -7.09262,
    "name": "Morocco"
  },
  {
    "key": "MC",
    "lat": 43.750298,
    "lng": 7.412841,
    "name": "Monaco"
  },
  {
    "key": "MD",
    "lat": 47.411631,
    "lng": 28.369885,
    "name": "Moldova"
  },
  {
    "key": "ME",
    "lat": 42.708678,
    "lng": 19.37439,
    "name": "Montenegro"
  },
  {
    "key": "MF",
    "lat": 18.08255,
    "lng": -63.052251,
    "name": "Saint Martin"
  },
  {
    "key": "MG",
    "lat": -18.766947,
    "lng": 46.869107,
    "name": "Madagascar"
  },
  {
    "key": "MH",
    "lat": 7.131474,
    "lng": 171.184478,
    "name": "Marshall Islands"
  },
  {
    "key": "MK",
    "lat": 41.608635,
    "lng": 21.745275,
    "name": "Macedonia [FYROM]"
  },
  {
    "key": "ML",
    "lat": 17.570692,
    "lng": -3.996166,
    "name": "Mali"
  },
  {
    "key": "MM",
    "lat": 21.913965,
    "lng": 95.956223,
    "name": "Myanmar [Burma]"
  },
  {
    "key": "MN",
    "lat": 46.862496,
    "lng": 103.846656,
    "name": "Mongolia"
  },
  {
    "key": "MO",
    "lat": 22.198745,
    "lng": 113.543873,
    "name": "Macau"
  },
  {
    "key": "MP",
    "lat": 17.33083,
    "lng": 145.38469,
    "name": "Northern Mariana Islands"
  },
  {
    "key": "MQ",
    "lat": 14.641528,
    "lng": -61.024174,
    "name": "Martinique"
  },
  {
    "key": "MR",
    "lat": 21.00789,
    "lng": -10.940835,
    "name": "Mauritania"
  },
  {
    "key": "MS",
    "lat": 16.742498,
    "lng": -62.187366,
    "name": "Montserrat"
  },
  {
    "key": "MT",
    "lat": 35.937496,
    "lng": 14.375416,
    "name": "Malta"
  },
  {
    "key": "MU",
    "lat": -20.348404,
    "lng": 57.552152,
    "name": "Mauritius"
  },
  {
    "key": "MV",
    "lat": 3.202778,
    "lng": 73.22068,
    "name": "Maldives"
  },
  {
    "key": "MW",
    "lat": -13.254308,
    "lng": 34.301525,
    "name": "Malawi"
  },
  {
    "key": "MX",
    "lat": 23.634501,
    "lng": -102.552784,
    "name": "Mexico"
  },
  {
    "key": "MY",
    "lat": 4.210484,
    "lng": 101.975766,
    "name": "Malaysia"
  },
  {
    "key": "MZ",
    "lat": -18.665695,
    "lng": 35.529562,
    "name": "Mozambique"
  },
  {
    "key": "NA",
    "lat": -22.95764,
    "lng": 18.49041,
    "name": "Namibia"
  },
  {
    "key": "NC",
    "lat": -20.904305,
    "lng": 165.618042,
    "name": "New Caledonia"
  },
  {
    "key": "NE",
    "lat": 17.607789,
    "lng": 8.081666,
    "name": "Niger"
  },
  {
    "key": "NF",
    "lat": -29.040835,
    "lng": 167.954712,
    "name": "Norfolk Island"
  },
  {
    "key": "NG",
    "lat": 9.081999,
    "lng": 8.675277,
    "name": "Nigeria"
  },
  {
    "key": "NI",
    "lat": 12.865416,
    "lng": -85.207229,
    "name": "Nicaragua"
  },
  {
    "key": "NL",
    "lat": 52.132633,
    "lng": 5.291266,
    "name": "Netherlands"
  },
  {
    "key": "NO",
    "lat": 60.472024,
    "lng": 8.468946,
    "name": "Norway"
  },
  {
    "key": "NP",
    "lat": 28.394857,
    "lng": 84.124008,
    "name": "Nepal"
  },
  {
    "key": "NR",
    "lat": -0.522778,
    "lng": 166.931503,
    "name": "Nauru"
  },
  {
    "key": "NU",
    "lat": -19.054445,
    "lng": -169.867233,
    "name": "Niue"
  },
  {
    "key": "NZ",
    "lat": -40.900557,
    "lng": 174.885971,
    "name": "New Zealand"
  },
  {
    "key": "OM",
    "lat": 21.512583,
    "lng": 55.923255,
    "name": "Oman"
  },
  {
    "key": "PA",
    "lat": 8.537981,
    "lng": -80.782127,
    "name": "Panama"
  },
  {
    "key": "PE",
    "lat": -9.189967,
    "lng": -75.015152,
    "name": "Peru"
  },
  {
    "key": "PF",
    "lat": -17.679742,
    "lng": -149.406843,
    "name": "French Polynesia"
  },
  {
    "key": "PG",
    "lat": -6.314993,
    "lng": 143.95555,
    "name": "Papua New Guinea"
  },
  {
    "key": "PH",
    "lat": 12.879721,
    "lng": 121.774017,
    "name": "Philippines"
  },
  {
    "key": "PK",
    "lat": 30.375321,
    "lng": 69.345116,
    "name": "Pakistan"
  },
  {
    "key": "PL",
    "lat": 51.919438,
    "lng": 19.145136,
    "name": "Poland"
  },
  {
    "key": "PM",
    "lat": 46.941936,
    "lng": -56.27111,
    "name": "Saint Pierre and Miquelon"
  },
  {
    "key": "PN",
    "lat": -24.703615,
    "lng": -127.439308,
    "name": "Pitcairn Islands"
  },
  {
    "key": "PR",
    "lat": 18.220833,
    "lng": -66.590149,
    "name": "Puerto Rico"
  },
  {
    "key": "PS",
    "lat": 31.952162,
    "lng": 35.233154,
    "name": "Palestinian Territories"
  },
  {
    "key": "PT",
    "lat": 39.399872,
    "lng": -8.224454,
    "name": "Portugal"
  },
  {
    "key": "PW",
    "lat": 7.51498,
    "lng": 134.58252,
    "name": "Palau"
  },
  {
    "key": "PY",
    "lat": -23.442503,
    "lng": -58.443832,
    "name": "Paraguay"
  },
  {
    "key": "QA",
    "lat": 25.354826,
    "lng": 51.183884,
    "name": "Qatar"
  },
  {
    "key": "RE",
    "lat": -21.115141,
    "lng": 55.536384,
    "name": "Réunion"
  },
  {
    "key": "RO",
    "lat": 45.943161,
    "lng": 24.96676,
    "name": "Romania"
  },
  {
    "key": "RS",
    "lat": 44.016521,
    "lng": 21.005859,
    "name": "Serbia"
  },
  {
    "key": "RU",
    "lat": 61.52401,
    "lng": 105.318756,
    "name": "Russia"
  },
  {
    "key": "RW",
    "lat": -1.940278,
    "lng": 29.873888,
    "name": "Rwanda"
  },
  {
    "key": "SA",
    "lat": 23.885942,
    "lng": 45.079162,
    "name": "Saudi Arabia"
  },
  {
    "key": "SB",
    "lat": -9.64571,
    "lng": 160.156194,
    "name": "Solomon Islands"
  },
  {
    "key": "SC",
    "lat": -4.679574,
    "lng": 55.491977,
    "name": "Seychelles"
  },
  {
    "key": "SD",
    "lat": 12.862807,
    "lng": 30.217636,
    "name": "Sudan"
  },
  {
    "key": "SE",
    "lat": 60.128161,
    "lng": 18.643501,
    "name": "Sweden"
  },
  {
    "key": "SG",
    "lat": 1.352083,
    "lng": 103.819836,
    "name": "Singapore"
  },
  {
    "key": "SH",
    "lat": -24.143474,
    "lng": -10.030696,
    "name": "Saint Helena"
  },
  {
    "key": "SI",
    "lat": 46.151241,
    "lng": 14.995463,
    "name": "Slovenia"
  },
  {
    "key": "SJ",
    "lat": 77.553604,
    "lng": 23.670272,
    "name": "Svalbard and Jan Mayen"
  },
  {
    "key": "SK",
    "lat": 48.669026,
    "lng": 19.699024,
    "name": "Slovakia"
  },
  {
    "key": "SL",
    "lat": 8.460555,
    "lng": -11.779889,
    "name": "Sierra Leone"
  },
  {
    "key": "SM",
    "lat": 43.94236,
    "lng": 12.457777,
    "name": "San Marino"
  },
  {
    "key": "SN",
    "lat": 14.497401,
    "lng": -14.452362,
    "name": "Senegal"
  },
  {
    "key": "SO",
    "lat": 5.152149,
    "lng": 46.199616,
    "name": "Somalia"
  },
  {
    "key": "SR",
    "lat": 3.919305,
    "lng": -56.027783,
    "name": "Suriname"
  },
  {
    "key": "ST",
    "lat": 0.18636,
    "lng": 6.613081,
    "name": "São Tomé and Príncipe"
  },
  {
    "key": "SV",
    "lat": 13.794185,
    "lng": -88.89653,
    "name": "El Salvador"
  },
  {
    "key": "SX",
    "lat": 18.030827,
    "lng": -63.073633,
    "name": "Sint Maarten"
  },
  {
    "key": "SY",
    "lat": 34.802075,
    "lng": 38.996815,
    "name": "Syria"
  },
  {
    "key": "SZ",
    "lat": -26.522503,
    "lng": 31.465866,
    "name": "Swaziland"
  },
  {
    "key": "TC",
    "lat": 21.694025,
    "lng": -71.797928,
    "name": "Turks and Caicos Islands"
  },
  {
    "key": "TD",
    "lat": 15.454166,
    "lng": 18.732207,
    "name": "Chad"
  },
  {
    "key": "TF",
    "lat": -49.280366,
    "lng": 69.348557,
    "name": "French Southern Territories"
  },
  {
    "key": "TG",
    "lat": 8.619543,
    "lng": 0.824782,
    "name": "Togo"
  },
  {
    "key": "TH",
    "lat": 15.870032,
    "lng": 100.992541,
    "name": "Thailand"
  },
  {
    "key": "TJ",
    "lat": 38.861034,
    "lng": 71.276093,
    "name": "Tajikistan"
  },
  {
    "key": "TK",
    "lat": -8.967363,
    "lng": -171.855881,
    "name": "Tokelau"
  },
  {
    "key": "TL",
    "lat": -8.874217,
    "lng": 125.727539,
    "name": "Timor-Leste"
  },
  {
    "key": "TM",
    "lat": 38.969719,
    "lng": 59.556278,
    "name": "Turkmenistan"
  },
  {
    "key": "TN",
    "lat": 33.886917,
    "lng": 9.537499,
    "name": "Tunisia"
  },
  {
    "key": "TO",
    "lat": -21.178986,
    "lng": -175.198242,
    "name": "Tonga"
  },
  {
    "key": "TR",
    "lat": 38.963745,
    "lng": 35.243322,
    "name": "Turkey"
  },
  {
    "key": "TT",
    "lat": 10.691803,
    "lng": -61.222503,
    "name": "Trinidad and Tobago"
  },
  {
    "key": "TV",
    "lat": -7.109535,
    "lng": 177.64933,
    "name": "Tuvalu"
  },
  {
    "key": "TW",
    "lat": 23.69781,
    "lng": 120.960515,
    "name": "Taiwan"
  },
  {
    "key": "TZ",
    "lat": -6.369028,
    "lng": 34.888822,
    "name": "Tanzania"
  },
  {
    "key": "UA",
    "lat": 48.379433,
    "lng": 31.16558,
    "name": "Ukraine"
  },
  {
    "key": "UG",
    "lat": 1.373333,
    "lng": 32.290275,
    "name": "Uganda"
  },
  {
    "key": "UM",
    "lat": 0,
    "lng": 0,
    "name": "U.S. Minor Outlying Islands"
  },
  {
    "key": "US",
    "lat": 37.09024,
    "lng": -95.712891,
    "name": "United States"
  },
  {
    "key": "UY",
    "lat": -32.522779,
    "lng": -55.765835,
    "name": "Uruguay"
  },
  {
    "key": "UZ",
    "lat": 41.377491,
    "lng": 64.585262,
    "name": "Uzbekistan"
  },
  {
    "key": "VA",
    "lat": 41.902916,
    "lng": 12.453389,
    "name": "Vatican City"
  },
  {
    "key": "VC",
    "lat": 12.984305,
    "lng": -61.287228,
    "name": "Saint Vincent and the Grenadines"
  },
  {
    "key": "VE",
    "lat": 6.42375,
    "lng": -66.58973,
    "name": "Venezuela"
  },
  {
    "key": "VG",
    "lat": 18.420695,
    "lng": -64.639968,
    "name": "British Virgin Islands"
  },
  {
    "key": "VI",
    "lat": 18.335765,
    "lng": -64.896335,
    "name": "U.S. Virgin Islands"
  },
  {
    "key": "VN",
    "lat": 14.058324,
    "lng": 108.277199,
    "name": "Vietnam"
  },
  {
    "key": "VU",
    "lat": -15.376706,
    "lng": 166.959158,
    "name": "Vanuatu"
  },
  {
    "key": "WF",
    "lat": -13.768752,
    "lng": -177.156097,
    "name": "Wallis and Futuna"
  },
  {
    "key": "WS",
    "lat": -13.759029,
    "lng": -172.104629,
    "name": "Samoa"
  },
  {
    "key": "XK",
    "lat": 42.602636,
    "lng": 20.902977,
    "name": "Kosovo"
  },
  {
    "key": "YE",
    "lat": 15.552727,
    "lng": 48.516388,
    "name": "Yemen"
  },
  {
    "key": "YT",
    "lat": -12.8275,
    "lng": 45.166244,
    "name": "Mayotte"
  },
  {
    "key": "ZA",
    "lat": -30.559482,
    "lng": 22.937506,
    "name": "South Africa"
  },
  {
    "key": "ZM",
    "lat": -13.133897,
    "lng": 27.849332,
    "name": "Zambia"
  },
  {
    "key": "ZW",
    "lat": -19.015438,
    "lng": 29.154857,
    "name": "Zimbabwe"
  }
]
